name,latitude,longitude,roads_count,industrial_count,agriculture_count,dumps_count
Delhi,28.6139,77.209,3673,0,0,0
Mumbai,19.076,72.8777,2028,20,2,0
Bengaluru,12.9716,77.5946,8182,15,0,0
Kolkata,22.5726,88.3639,3390,31,0,0
Chennai,13.0827,80.2707,3168,14,0,2
Hyderabad,17.385,78.4867,3934,1,1,0
Pune,18.5204,73.8567,4425,5,1,0
Ahmedabad,23.0225,72.5714,2822,7,0,0
Jaipur,26.9124,75.7873,2954,2,0,0
Lucknow,26.8467,80.9462,1903,3,1,0
